placename,oc_lat,oc_lng,oc_formatted
"A L Pedersensvej 3, 8961 Allingåbro",56.4649,10.3341,"8961, Denmark"
"Industrivej Syd 1, 7490 Aulum",56.257959,8.792371,"Industrivej Syd 1, 7490 Aulum, Denmark"
"Søndergade 13b, 7860 Spøttrup",56.611832,8.879895,"Søndergade 13B, 7860 Spøttrup, Denmark"
"Vestergade 101, 8850 Bjerringbro",56.370899,9.630651,"Vestergade 101, 8850 Bjerringbro, Denmark"
"Brandlundvej 25, 7330 Brande",55.943049,9.115927,"Brandlundvej 25B, 7330 Brande, Denmark"
"Vestervangen 5G, 8740 Brædstrup",55.971332,9.606569,"Vestervangen 5G, 8740 Brædstrup, Denmark"
"Vilholmvej 4A, 7870 Roslev",56.743734,8.960853,"Vilholmvej 4A, 7870 Roslev, Denmark"
"Falcksvej 1, 8400 Ebeltoft",56.190965,10.671265,"Falcksvej 1, 8400 Ebeltoft, Denmark"
"Marktoften 1, 8464 Galten",56.148753,9.929416,"Marktoften 1, 8464 Galten, Denmark"
"Hadsundvej 551, 8983 Gjerlev",56.586078,10.124177,"Hadsundvej 551, 8983 Gjerlev, Denmark"
"Gammel Horsensvej 403, 8660 Skanderborg",55.98737,10.021714,"Gammel Horsensvej 403, 8660 Skanderborg, Denmark"
"Laenvej 29-31, 8585 Glesborg",56.4712059,10.715948,"Laenvej, Glesborg, Denmark"
"Sundhedshuset, Kløvervang 69-71, 8500 Grenå",56.4158,10.8782,"8500, Denmark"
"Ginneruplundvej 1, 8370 Hadsten",56.317773,10.044012,"Ginneruplundvej 1, 8370 Hadsten, Denmark"
"Ny Tilemannsvej 2, 8450 Hammel",56.257598,9.859092,"Ny Tilemannsvej 2, 8450 Hammel, Denmark"
"Lundagervej 16b, 8722 Hedensted",55.793542,9.675966,"Lundagervej 16, 8722 Hedensted, Denmark"
"H.P. Hansens Vej 112, 7400 Herning",56.144196,8.942126,"H.P. Hansens Vej 112, 7400 Herning, Denmark"
"Knudsvej 2, 7400 Herning",56.131545,8.992084,"Knudsvej 2, 7400 Herning, Denmark"
"Samsøvej 2, 8382 Hinnerup",56.253128,10.069576,"Samsøvej 2, 8382 Hinnerup, Denmark"
"Sundhedshuset, Stationsvej 31, 7500 Holstebro",56.3601,8.6161,"7500, Denmark"
"Frøjkvej 2, 7500 Holstebro",56.360344,8.610015,"Frøjkvej 2, 7500 Holstebro, Denmark"
"Borupvej 2, 8543 Hornslet",56.322333,10.300835,"Borupvej 2, 8543 Hornslet, Denmark"
"Søndergade 18, 8783 Hornsyld",55.754862,9.850176,"Søndergade 18, 8783 Hornsyld, Denmark"
"Sverigesvej 17C, 8700 Horsens",55.856875,9.817478,"Sverigesvej 17C, 8700 Horsens, Denmark"
"Nørregade 84, 6960 Hvide Sande",56.014969,8.129306,"Nørregade 84, 6960 Hvide, Denmark"
"Kirkegade 104, 7430 Ikast",56.129951,9.149038,"Kirkegade 104, 7430 Ikast, Denmark"
"Gammelgårdsvej 6, 7130 Juelsminde",55.711234,9.968377,"Gammelgårdsvej 6, 7130 Juelsminde, Denmark"
"Gl. Banevej 19, 7470 Karup J",56.308677,9.18021,"Gammel Banevej 19, 7470 Karup, Denmark"
"Søndergade 69, 8620 Kjellerup",56.284021,9.432845,"Søndergade 69, 8620 Kjellerup, Denmark"
"Romlehøjvej 5, 8560 Kolind",56.356023,10.571545,"Romlehøjvej 5, 8560 Kolind, Denmark"
"Væthvej 2, 8870 Langå",56.3981832,9.9202589,"Væthvej, 8870 Langå, Denmark"
"Vangevej 8, 7629 Lemvig",56.546936,8.294843,"Vangevej 8, 7620 Lemvig, Denmark"
"Falkevej 2, 8766 Nørre Snede",55.963158,9.399282,"Falkevej 2, 8766 Nørre, Denmark"
"Rønhøjvej 7, 8300 Odder",55.984622,10.142268,"Rønhøjvej 7, 8300 Odder, Denmark"
"Skovlyvej 15, 8930 Randers NØ",56.47055,10.050184,"Skovlyvej 15, 8930 Randers NØ, Denmark"
"Ribevej 3, 8940 Randers SV",56.437193,10.049876,"Ribevej 3, 8940 Randers SV, Denmark"
"Vester Strandsbjerg 25, 6950 Ringkøbing",56.0889235,8.2404424,"Vester Strandsbjerg, 6950 Ringkøbing, Denmark"
"Sundhedshuset, Nørreport 18, 6950 Ringkøbing",56.0901,8.244,"6950, Denmark"
"Brunhøjvej 13, 8680 Ry",56.086903,9.778796,"Brunhøjvej 13, 8680 Ry, Denmark"
"Bækkelundsvej 2, 8410 Rønde",56.30281,10.463677,"Bækkelundsvej 2, 8410 Rønde, Denmark"
"Kejlstrupvej 99D, 8600 Silkeborg",56.19301,9.554688,"Kejlstrupvej 99D, 8600 Silkeborg, Denmark"
"Vestergade 131, 8660 Skanderborg",56.038686,9.914984,"Vestergade 131, 8660 Skanderborg, Denmark"
"Engvej 4-6, 7800 Skive",56.5694154,9.0404889,"Engvej, 7800 Skive, Denmark"
"Bredgade 71, 7600 Struer",56.481664,8.590038,"Bredgade 71, 7600 Struer, Denmark"
"Bjergvej 24, 7280 Sdr. Felding",55.558244,8.123399,"Bjergvej 24, 6857 Blåvand, Denmark"
"Nørremarksvej 2, 6880 Tarm",55.911422,8.535071,"Nørremarksvej 2, 6880 Tarm, Denmark"
"Industrivej 25, 8305 Samsø",55.83598,10.601726,"Industrivej 25, 8305 Samsø, Denmark"
"Torstedvej 4-8, 6990 Ulfborg",56.1972177,8.3186666,"Torstedvej, 6980 Tim, Denmark"
"Fabrikvej 5, 8800 Viborg",56.467857,9.401169,"Fabrikvej 5, 8800 Viborg, Denmark"
"Nygade 8, 6920 Videbæk",56.093442,8.632718,"Nygade 8, 6920 Videbæk, Denmark"
"Nr. Bjertvej 17, 7830 Vinderup",56.474574,8.762681,"Nørre Bjertvej 17, 7830 Vinderup, Denmark"
"Korshøjvej 2, 8600 Silkeborg",56.134937,9.566645,"Korshøjvej 2, 8600 Silkeborg, Denmark"
"Ny Munkegade 15, 8000 Aarhus C",56.161567,10.203182,"Ny Munkegade 15, 8000 Aarhus C, Denmark"
"Olof Palmes Allé 32, 8200 Aarhus N",56.190073,10.187895,"Olof Palmes Allé 32, 8200 Aarhus N, Denmark"
"Stokagervej 8A, 8240 Risskov",56.207989,10.229576,"Stokagervej 8A, 8240 Risskov, Denmark"
"Søren Nymarksvej 6 W, 8270 Højbjerg",56.1112,10.2099,"8270, Denmark"
"Bautavej 5, 8210 Aarhus V",56.166229,10.146567,"Bautavej 5, 8210 Aarhus V, Denmark"
"Sdr Omfartsvej 1, 9700 Brønderslev",57.274417,9.924764,"Sdr Omfartsvej 1, 9700 Brønderslev, Denmark"
"Slotsgade 38, 9330 Dronninglund",57.15901,10.29416,"Slotsgade 38, 9330 Dronninglund, Denmark"
"H.C. Ørsteds Vej 35, 9900 Frederikshavn",57.441159,10.496047,"H.C. Ørsteds Vej 35, 9900 Frederikshavn, Denmark"
"Frederikshavnsvej 33, 9800 Hjørring",57.45608,10.004928,"Frederikshavnsvej 33, 9800 Hjørring, Denmark"
"Byrum Hovedgade 19A, 9940 Læsø",57.257809,10.989621,"Byrum Hovedgade 19A, 9940 Læsø, Denmark"
"Industrivej 9, 9480 Løkken",57.371626,9.728844,"Industrivej 9, 9480 Løkken, Denmark"
"Søndergade 47, 9240 Nibe",56.979104,9.630961,"Søndergade 47, 9240 Nibe, Denmark"
"Bouet Møllevej 16, 9400 Nørresundby",57.086326,9.960994,"Bouet Møllevej 16, 9400 Nørresundby, Denmark"
"Stormgade 4, 9490 Pandrup",57.223318,9.674446,"Stormgade 4, 9490 Pandrup, Denmark"
"Kattegatvej 3, 9990 Skagen",57.726366,10.563711,"Kattegatvej 3, 9990 Skagen, Denmark"
"Ålborgvej 95, 9300 Sæby",57.323035,10.487993,"Ålborgvej 95, 9300 Sæby, Denmark"
"Håndværkervej 27, 9000 Aalborg",57.031789,9.926837,"Håndværkervej 27, 9000 Aalborg, Denmark"
"Stationsvej 20, 9460 Brovst",57.099932,9.51026,"Stationsvej 20, 9460 Brovst, Denmark"
"Søndergården 4, 9640 Farsø",56.76443,9.33843,"Søndergården 4, 9640 Farsø, Denmark"
"Mågevej 14, 9690 Fjerritslev",57.083514,9.261231,"Mågevej 14, 9690 Fjerritslev, Denmark"
"Østergade 70, 9560 Hadsund",56.724177,10.127092,"Hadsund Centrum, Østergade 70, 9560 Hadsund, Denmark"
"Sjællandsvej 9, 9500 Hobro",56.628302,9.815834,"Sjællandsvej 9, 9500 Hobro, Denmark"
"Industrivej 14, 7760 Hurup",56.748782,8.432184,"Industrivej 14, 7760 Hurup, Denmark"
"Aarsvej 5, 9670 Løgstør",56.996708,9.299059,"Aarsvej 5, 9670 Løgstør, Denmark"
"Elsøvej 107, 7900 Nykøbing",56.799346,8.840173,"Elsøvej 107, 7900 Nykøbing, Denmark"
"Vestre Primærvej 9, 9530 Støvring",56.888826,9.819807,"Vestre Primærvej 9, 9530 Støvring, Denmark"
"Mølledamsvej 8, 9575 Terndrup",56.816059,10.055075,"Mølledamsvej 8, 9575 Terndrup, Denmark"
"Fabriksvej 4, 7700 Thisted",56.961982,8.725877,"Fabriksvej 4, 7700 Thisted, Denmark"
"Rævebakken 5, 7752 Snedsted",56.883182,8.609288,"Rævebakken 5, 7752 Snedsted, Denmark"
"Industrivej 52, 9600 Aars",56.810811,9.496282,"Industrivej 52, 9600 Aars, Denmark"
"Holmelund 32, 5560 Aarup",55.380094,10.05673,"Holmelund 32, 5560 Aarup, Denmark"
"Fåborgvej 16, 5610 Assens",55.260781,9.911235,"Fåborgvej 16, 5610 Assens, Denmark"
"Sjællandsvej 2, 5400 Bogense",55.553704,10.08722,"Sjællandsvej 2, 5400 Bogense, Denmark"
"Sivlandsvænget 15, 5260 Odense S",55.3902,10.5201,"5260, Denmark"
"Markedspladsen 15, st. tv., 5600 Fåborg",55.0951,10.2423,"5600, Denmark"
"Fredensvej 36, 5620 Glamsbjerg",55.275412,10.099344,"Fredensvej 36, 5620 Glamsbjerg, Denmark"
"Strandvangen 3, 5300 Kerteminde",55.459312,10.65564,"Strandvangen 3, 5300 Kerteminde, Denmark"
"Ladegårdsvej 4, 5800 Nyborg",55.319202,10.777066,"Ladegårdsvej 4, 5800 Nyborg, Denmark"
"Kildemosevej 15, 5000 Odense C",55.393175,10.360031,"Kildemosevej 15, 5000 Odense C, Denmark"
"Strandvejen 55, 5450 Otterup",55.429286,10.442531,"Strandvejen 55, 5240 Odense NØ, Denmark"
"Selagervej 1, 5750 Ringe",55.246433,10.486305,"Selagervej 1, 5750 Ringe, Denmark"
"Ellehaven 4F, 5900 Rudkøbing",54.93812,10.727791,"Ellehaven 4F, 5900 Rudkøbing, Denmark"
"Sallinge Ågade 20, 5750 Ringe",55.221887,10.340444,"Sallinge Ågade 20, 5750 Ringe, Denmark"
"Grønnemosevej 9, 5700 Svendborg",55.075649,10.586177,"Grønnemosevej 9, 5700 Svendborg, Denmark"
"Dunkærgade 18, 5970 Ærøskøbing",54.848889,10.414053,"Dunkærgade 18, 5970 Ærøskøbing, Denmark"
"Nørremarken 3, 6753 Agerbæk",55.606002,8.806147,"Nørremarken 3, 6753 Agerbæk, Denmark"
"Industrivej 52, 6740 Bramming",55.357237,8.772161,"Industrivej 52, 6760 Ribe, Denmark"
"Falkevej 14, 6705 Esbjerg Ø",55.492628,8.464462,"Falkevej 14, 6705 Esbjerg Ø, Denmark"
"Vestergade 27, 6670 Holsted",55.513183,8.904582,"Vestergade 27, 6670 Holsted, Denmark"
"Sønder Nytoft 19, 6720 Fanø",55.442699,8.387894,"Sønder Nytoft 19, 6720 Fanø, Denmark"
"Byagervej 4, 6830 Nr. Nebel",55.780216,8.287646,"Byagervej 4, 6830 Nørre, Denmark"
"Strandvejen 1A, 6840 Oksbøl",55.626003,8.276254,"Strandvejen 1A, 6840 Oksbøl, Denmark"
"Ørstedsvej 43, 6760 Ribe",55.352486,8.771028,"Ørstedsvej 43, 6760 Ribe, Denmark"
"Louisevej 13, 6630 Rødding",55.369131,9.06077,"Louisevej 13, 6630 Rødding, Denmark"
"Billund Lufthavn, Stratusvej, 7190 Billund",55.740737,9.1603919,"Billund Airport, Stratusvej, 7190 Billund, Denmark"
"Odinsvej 9, 7200 Grindsted",56.170747,8.847719,"Odinsvej 9, 7480 Vildbjerg, Denmark"
"Nordre Boulevard 73, 6800 Varde",55.631917,8.483272,"Nordre Boulevard 73, 6800 Varde, Denmark"
"Industrivej 3, 6870 Ølgod",55.808258,8.623932,"Industrivej 3, 6870 Ølgod, Denmark"
"Baungårdsvej 65, 6600 Vejen",55.485182,9.123973,"Baungårdsvej 65, 6600 Vejen, Denmark"
"Pilemosen 19, 6200 Aabenraa",55.031568,9.414315,"Pilemosen 19, 6200 Aabenraa, Denmark"
"Søndervang 19, 6780 Skærbæk",55.152699,8.779318,"Søndervang 19, 6780 Skærbæk, Denmark"
"Norgesvej 2, 6100 Haderslev",55.261645,9.473624,"Norgesvej 2, 6100 Haderslev, Denmark"
"Skovglimt 6, 6340 Kruså",54.849219,9.400112,"Skovglimt 6, 6340 Kruså, Denmark"
"Aabenraavej 41, 6240 Løgumkloster",55.056525,8.967642,"Aabenraavej 41, 6240 Løgumkloster, Denmark"
"Ingolf Nielsens vej 14, 6400 Sønderborg",54.929724,9.79066,"Ingolf Nielsens Vej 14, 6400 Sønderborg, Denmark"
"Højskolevej 1, 6360 Tinglev",54.934326,9.24058,"Højskolevej 1, 6360 Tinglev, Denmark"
"Ærøvej 2, 6520 Toftlund",55.191387,9.080218,"Ærøvej 2, 6520 Toftlund, Denmark"
"Nordre Industrivej 5A, 6270 Tønder",54.950473,8.866567,"Nordre Industrivej 5A, 6270 Tønder, Denmark"
"Tingvejen 30B, 6500 Vojens",55.237724,9.272981,"Tingvejen 30B, 6500 Vojens, Denmark"
"Køgevej 2B, 4640 Faxe",55.256048,12.097567,"Køgevej 2B, 4640 Faxe, Denmark"
"Lunikvej 4, 2670 Greve",55.604824,12.295785,"Lunikvej 4, 2670 Greve, Denmark"
"Grønlandsgade 10, 4690 Haslev",55.3305,11.938712,"Grønlandsgade 10, 4690 Haslev, Denmark"
"Horseager 5, 4330 Hvalsø",55.59392,11.8558,"Horseager 5, 4330 Hvalsø, Denmark"
"Industrivej 24, 4652 Hårlev",55.346464,12.22779,"Industrivej 24, 4652 Hårlev, Denmark"
"Rødbyvej 4, 4930 Maribo",54.775133,11.485225,"Rødbyvej 4, 4930 Maribo, Denmark"
"Maribovej 31, 4900 Nakskov",54.831862,11.151771,"Maribovej 31, 4900 Nakskov, Denmark"
"Kringelborg Allé 2, 4800 Nykøbing Falster",54.759162,11.894274,"Kringelborg Alle 2, 4800 Nykøbing, Denmark"
"Rigavej 4, 4840 Nørre Alslev",54.899786,11.91577,"Rigavej 4, 4840 Nørre, Denmark"
"Lindevej 17A, 4720 Præstø",55.119701,12.04222,"Lindevej 17A, 4720 Præstø, Denmark"
"Industriparken 15, 4100 Ringsted",55.430088,11.791492,"Industriparken 15, 4100 Ringsted, Denmark"
"Snedkervej 7, 4990 Sakskøbing",54.797378,11.61236,"Snedkervej 7, 4990 Sakskøbing, Denmark"
"Pilevej 5, 4780 Stege",54.994069,12.288132,"Pilevej 5, 4780 Stege, Denmark"
"Nørregade 20, 4660 Store Heddinge",55.314482,12.389683,"Nørregade 20, 4660 Store, Denmark"
"Kildemarksvej 2, 4760 Vordingborg",55.015137,11.921054,"Kildemarksvej 2, 4760 Vordingborg, Denmark"
"Nygade 15, 4550 Asnæs",55.807618,11.498115,"Nygade 15, 4550 Asnæs, Denmark"
"Kalundborgvej 15, 4460 Snertinge",55.710622,11.380403,"Dyrlægegården, Kalundborgvej 15, 4460 Snertinge, Denmark"
"Birkevej 20, 4291 Ruds-Vedby",55.540683,11.383982,"Birkevej 20, 4291 Ruds, Denmark"
"Vesterlyngvej 18, 4500 Nykøbing Sjælland",55.926897,11.658022,"Vesterlyngvej 18, 4500 Nykøbing, Denmark"
"Vintapperbuen 2, 4070 Kirke Hyllinge",55.701092,11.887358,"Vintapperbuen 2, 4070 Kirke, Denmark"
"Færgevej 68, 3600 Frederikssund",55.844351,12.049447,"Færgevej 68, 3600 Frederikssund, Denmark"
"L. C. Worsøesvej 6, 4300 Holbæk",55.704346,11.716172,"L.C. Worsøesvej 6, 4300 Holbæk, Denmark"
"Stejlhøj 9, 4400 Kalundborg",55.679229,11.126635,"Stejlhøj 9, 4400 Kalundborg, Denmark"
"Antvorskov Alle 135, 4200 Slagelse",55.394168,11.353532,"Antvorskov Alle 135, 4200 Slagelse, Denmark"
"Reskavej 11, 4220 Korsør",55.349651,11.143436,"Reskavej 11, 4220 Korsør, Denmark"
"Byledet 66, 4600 Køge",55.463699,12.119183,"Byledet 66, 4600 Køge, Denmark"
"Stæremosen 2, 3250 Gilleleje",56.115716,12.322422,"Stæremosen 2, 3250 Gilleleje, Denmark"
"Klostermosevej 106C, 3000 Helsingør",56.024865,12.572319,"Klostermosevej 106C, 3000 Helsingør, Denmark"
"Frederiksborgvej 50, 3200 Helsinge",56.015833,12.203183,"Frederiksborgvej 50, 3200 Helsinge, Denmark"
"Heimdalsvej 1, 3400 Hillerød",55.933217,12.275238,"Heimdalsvej 1, 3400 Hillerød, Denmark"
"Hundestedvej 6, 3300 Frederiksværk",55.981554,12.017419,"Hundestedvej 6, 3300 Frederiksværk, Denmark"
"Hovedgaden 71, 3630 Jægerspris",55.855382,11.991509,"Hovedgaden 71, 3630 Jægerspris, Denmark"
"Færgevej 68, 3600 Frederikssund",55.844351,12.049447,"Færgevej 68, 3600 Frederikssund, Denmark"
"Frydensbergvej 5, 3660 Stenløse",55.771575,12.197882,"Frydensbergvej 5, 3660 Stenløse, Denmark"
"Ryttermarken 13, 3520 Farum",55.820554,12.358807,"Ryttermarken 13, 3520 Farum, Denmark"
"Gl Rådhusvej 86, 2750 Ballerup",55.73137,12.37297,"Gammel Rådhusvej 86, 2750 Ballerup, Denmark"
"Vandtårnsvej 59, 2860 Søborg",55.735573,12.493694,"Vandtårnsvej 59, 2860 Søborg, Denmark"
"Bernstorffsvej 159, 2900 Hellerup",55.748515,12.557039,"Bernstorffsvej 159, 2920 Charlottenlund, Denmark"
"Øtoftegårdsvej 4, 2630 Taastrup",55.655361,12.280415,"Øtoftegårdsvej 4, 2630 Taastrup, Denmark"
"Avedøre Havnevej 37, 2650 Hvidovre",55.653428,12.456892,"Avedøre Havnevej 37, 2650 Hvidovre, Denmark"
"Nordre Fasanvej 209, 2000 Frederiksberg",55.695338,12.532569,"Nordre Fasanvej 209B, 2000 Frederiksberg, Denmark"
"Hvidovrevej 9, 2610 Rødovre",55.670591,12.475556,"Hvidovrevej 9, 2610 Rødovre, Denmark"
"Ved Lunden 9, 3700 Rønne",55.095025,14.714615,"Ved Lunden 9, 3700 Rønne, Denmark"
"Industrivej 4, 3782 Klemensker",55.177114,14.812541,"Industrivej 4, 3782 Klemensker, Denmark"
"Falckvej 2, 3730 Nexø",55.059767,15.120639,"Falckvej 2, 3730 Nexø, Denmark"
